City_ID,City,Lat,Lng,Max Temp,Humidity,Cloudiness,Wind Speed,Country,Date
0,tazovsky,67.4667,78.7,-25.55,99,69,4.51,RU,1712696040
1,port mathurin,-19.6833,63.4167,26.81,74,0,3.24,MU,1712696040
2,mzimba,-11.9,33.6,17.32,95,14,2.62,MW,1712696041
3,constantia,44.1833,28.65,10.39,78,0,2.23,RO,1712695957
4,jamestown,42.097,-79.2353,23.07,43,40,5.66,US,1712695859
5,dudinka,69.4058,86.1778,-22.12,96,100,5.64,RU,1712696041
6,coahuayana de hidalgo,18.7,-103.6583,30.35,43,3,3.58,MX,1712696041
7,niafunke,15.9322,-3.9906,35.57,16,0,2.29,ML,1712696041
8,port-aux-francais,-49.35,70.2167,8.54,94,100,17.02,TF,1712696041
9,vadso,70.0744,29.7487,-1.51,86,40,4.63,NO,1712696041
10,luena,-11.7833,19.9167,22.1,94,97,0.0,AO,1712696041
11,edinburgh of the seven seas,-37.0676,-12.3116,18.53,90,100,7.06,SH,1712696042
12,road town,18.4167,-64.6167,28.02,65,40,6.69,VG,1712695876
13,college,64.8569,-147.8028,2.27,52,75,2.57,US,1712696042
14,gadzhiyevo,69.2551,33.3362,-3.58,90,100,1.66,RU,1712696042
15,longyearbyen,78.2186,15.6401,-10.09,85,75,0.0,SJ,1712696042
16,waitangi,-43.9535,-176.5597,16.57,90,33,3.58,NZ,1712696042
17,karratha,-20.7377,116.8463,24.34,49,100,13.03,AU,1712696042
18,port elizabeth,-33.918,25.5701,17.83,94,25,4.02,ZA,1712696042
19,kerikeri,-35.2268,173.9474,21.06,88,77,4.47,NZ,1712696042
20,adamstown,-25.066,-130.1015,23.63,79,39,2.56,PN,1712696042
21,lexington park,38.2668,-76.4538,24.47,51,100,4.63,US,1712696043
22,stanley,54.868,-1.6985,6.55,79,20,8.23,GB,1712696043
23,bamboo flat,11.7,92.7167,28.05,89,20,1.03,IN,1712696043
24,punta arenas,-53.15,-70.9167,8.06,53,40,8.75,CL,1712696039
25,katsuren-haebaru,26.3369,127.8719,20.01,79,20,5.66,JP,1712696043
26,gargalianoi,37.0667,21.6333,16.86,77,5,3.68,GR,1712696043
27,uturoa,-16.7333,-151.4333,28.86,75,98,6.08,PF,1712696043
28,vitoria de santo antao,-8.1181,-35.2914,27.07,82,86,4.2,BR,1712696043
29,lewiston orchards,46.3804,-116.9754,15.48,51,100,1.54,US,1712696043
30,albany,42.6001,-73.9662,23.1,27,57,1.25,US,1712696044
31,kingston,17.997,-76.7936,30.53,71,40,11.83,JM,1712695574
32,remire-montjoly,4.9167,-52.2667,27.02,94,75,1.54,GF,1712696044
33,hermanus,-34.4187,19.2345,14.89,84,97,3.35,ZA,1712696044
34,susuman,62.7833,148.1667,-21.68,100,96,0.89,RU,1712696044
35,dryden,49.7833,-92.7503,5.16,93,100,2.57,CA,1712696044
36,weno,7.4515,151.8468,28.97,84,75,6.17,FM,1712696044
37,port lincoln,-34.7333,135.8667,14.32,69,100,1.7,AU,1712696044
38,tiksi,71.6872,128.8694,-17.58,98,100,2.56,RU,1712696044
39,nadym,65.5333,72.5167,-24.46,97,8,3.85,RU,1712696044
40,copiapo,-27.3667,-70.3333,17.83,31,3,2.19,CL,1712695613
41,muravlenko,63.7898,74.523,-23.47,95,6,4.18,RU,1712696045
42,happy valley-goose bay,53.3168,-60.3315,-1.83,54,100,5.14,CA,1712695991
43,bethel,41.3712,-73.414,24.66,34,0,2.57,US,1712696012
44,luderitz,-26.6481,15.1594,18.52,66,0,8.45,NA,1712696045
45,kununurra,-15.7667,128.7333,19.99,68,82,1.54,AU,1712695762
46,great yarmouth,52.6083,1.7305,10.14,68,100,9.96,GB,1712696045
47,avarua,-21.2078,-159.775,26.03,89,75,4.63,CK,1712695828
48,bredasdorp,-34.5322,20.0403,16.72,86,71,4.0,ZA,1712696045
49,krasnyy chikoy,50.3643,108.7512,0.85,93,9,1.16,RU,1712696045
50,ancud,-41.8697,-73.8203,11.81,62,58,4.52,CL,1712695799
51,vorgashor,67.5833,63.95,-30.1,100,56,1.4,RU,1712696046
52,talnakh,69.4865,88.3972,-24.59,99,99,3.83,RU,1712696046
53,nha trang,12.25,109.1833,28.0,88,37,2.31,VN,1712696046
54,ponta delgada,37.7333,-25.6667,18.44,94,75,6.17,PT,1712696046
55,iqaluit,63.7506,-68.5145,-6.15,79,100,1.54,CA,1712696046
56,yellowknife,62.456,-114.3525,7.29,45,20,3.09,CA,1712695947
57,greymouth,-42.4667,171.2,16.56,90,100,4.65,NZ,1712696046
58,isafjordur,66.0755,-23.124,-2.09,91,100,3.04,IS,1712696046
59,grytviken,-54.2811,-36.5092,2.87,88,100,6.34,GS,1712696046
60,kingscliff,-28.2667,153.5667,17.65,63,5,2.57,AU,1712696046
61,taoudenni,22.6783,-3.9836,32.9,14,0,3.74,ML,1712696046
62,ujae,8.9322,165.7642,27.73,82,100,9.58,MH,1712696047
63,la ronge,55.1001,-105.2842,14.12,40,75,2.57,CA,1712696047
64,puerto natales,-51.7236,-72.4875,9.25,53,40,10.8,CL,1712696047
65,vuktyl,63.8567,57.3094,-10.04,95,100,1.0,RU,1712696047
66,fort mcmurray,56.7268,-111.381,14.77,30,40,5.14,CA,1712696047
67,choibalsan,48.0667,114.5,4.06,56,53,2.78,MN,1712696047
68,yuzhno-kurilsk,44.0306,145.8556,1.32,98,84,9.59,RU,1712696047
69,ushuaia,-54.8,-68.3,4.81,70,75,11.32,AR,1712696047
70,kapuskasing,49.4169,-82.4331,9.05,93,100,4.63,CA,1712695912
71,teluk nibung,3.001,99.8164,24.39,97,100,1.95,ID,1712696048
72,bontang,0.1333,117.5,25.98,88,100,4.69,ID,1712696048
73,badger,64.8,-147.5333,2.22,57,75,2.57,US,1712696048
74,san jose de jachal,-30.2406,-68.7469,23.06,36,4,4.4,AR,1712696003
75,hamilton,39.1834,-84.5333,20.11,82,100,7.2,US,1712695864
76,ust-nera,64.5667,143.2,-14.48,98,82,1.52,RU,1712696048
77,pyapon,16.2833,95.6833,28.19,68,63,2.35,MM,1712696048
78,west bay,19.3667,-81.4167,30.04,66,40,7.72,KY,1712695850
79,cuyo,10.8525,121.0086,28.3,78,98,8.79,PH,1712696048
80,dadukou,26.5479,101.7054,16.92,41,73,1.4,CN,1712696049
81,omdurman,15.6445,32.4777,29.3,6,6,6.67,SD,1712696049
82,east london,-33.0153,27.9116,19.53,90,100,9.07,ZA,1712696049
83,olonkinbyen,70.9221,-8.7187,-2.79,86,34,6.18,SJ,1712696049
84,tazacorte,28.629,-17.9293,18.54,86,0,8.75,ES,1712696049
85,stephenville,32.2207,-98.2023,17.7,88,100,5.14,US,1712695971
86,emerald,-23.5333,148.1667,15.19,65,4,4.52,AU,1712696049
87,puerto ayora,-0.7393,-90.3518,29.98,91,35,2.24,EC,1712696049
88,jacmel,18.2342,-72.5347,28.1,71,47,3.53,HT,1712695915
89,cabo san lucas,22.8909,-109.9124,24.54,53,0,4.12,MX,1712696027
90,san patricio,28.017,-97.5169,32.87,59,61,8.15,US,1712696050
91,altamont,42.2068,-121.7372,17.72,47,0,1.79,US,1712696050
92,daruvar,45.5906,17.225,17.03,68,99,1.57,HR,1712696050
93,alesund,62.4723,6.1549,8.51,87,75,6.17,NO,1712695872
94,goba,7.0167,39.9833,11.86,88,17,1.94,ET,1712696050
95,callao,-12.0667,-77.15,25.16,69,0,5.14,PE,1712696020
96,mejit,10.2753,170.8646,26.96,84,93,9.51,MH,1712696050
97,san fernando de apure,7.8878,-67.4724,38.2,21,56,3.89,VE,1712696050
98,maxixe,-23.8597,35.3472,24.51,88,79,4.87,MZ,1712696050
99,blackmans bay,-43.0167,147.3167,8.18,91,54,0.89,AU,1712696051
100,margaret river,-33.95,115.0667,12.74,80,30,5.56,AU,1712695824
101,papao,-17.75,-149.55,29.82,79,100,5.88,PF,1712696051
102,acapulco de juarez,16.8634,-99.8901,26.41,61,66,5.14,MX,1712695833
103,west island,-12.1568,96.8225,26.99,74,40,7.2,CC,1712696051
104,maragogi,-9.0122,-35.2225,26.08,87,96,3.86,BR,1712695997
105,kupang,-10.1667,123.5833,26.32,100,65,1.54,ID,1712696051
106,bilibino,68.0546,166.4372,-9.59,92,100,1.28,RU,1712696051
107,awjilah,29.1081,21.2869,17.82,47,39,4.46,LY,1712696051
108,pacasmayo,-7.4006,-79.5714,24.36,72,13,6.93,PE,1712696051
109,borazjan,29.2666,51.2159,27.17,41,0,0.18,IR,1712696051
110,todos santos,23.45,-110.2167,24.61,70,0,6.11,MX,1712696052
111,illizi,26.4833,8.4667,31.89,14,99,4.53,DZ,1712696052
112,mugia,43.1041,-9.2179,12.17,65,100,1.59,ES,1712696052
113,wailua homesteads,22.0669,-159.378,25.24,77,0,7.2,US,1712696052
114,humaita,-7.5061,-63.0208,27.29,93,100,1.47,BR,1712696052
115,ialibu,-6.2821,143.9935,15.23,99,100,0.59,PG,1712696052
116,port douglas,-16.4833,145.4667,26.02,80,99,2.16,AU,1712696052
117,tolanaro,-25.0319,46.9987,26.04,89,20,6.17,MG,1712696052
118,saucillo,28.0167,-105.2833,25.01,7,0,14.99,MX,1712696052
119,dalandzadgad,43.5708,104.425,7.9,29,1,3.07,MN,1712696052
120,glace bay,46.1969,-59.957,2.72,73,75,12.86,CA,1712696052
121,brookings,44.3114,-96.7984,16.21,46,40,7.72,US,1712695857
122,velikiye luki,56.34,30.5452,15.18,92,18,0.65,RU,1712696053
123,corinto,37.9407,22.9573,16.8,49,0,0.82,GR,1712696053
124,turkmenbasy,40.0222,52.9552,11.43,82,0,1.03,TM,1712695878
125,jampur,29.6441,70.5954,28.41,11,80,1.89,PK,1712696053
126,el charco,2.4769,-78.1105,29.13,74,59,3.78,CO,1712696053
127,coquimbo,-29.9533,-71.3436,15.85,88,40,5.14,CL,1712696036
128,battlefield,37.1156,-93.3702,21.12,54,100,3.13,US,1712696053
129,whitehorse,60.7161,-135.0538,5.61,35,75,5.14,CA,1712696053
130,asipovichy,53.2933,28.6422,14.46,68,15,2.31,BY,1712696053
131,wanning,18.8003,110.3967,25.06,94,100,1.82,CN,1712696054
132,tadine,-21.55,167.8833,26.52,84,84,4.65,NC,1712696054
133,la passe,45.5549,-0.8967,10.55,78,7,5.46,FR,1712696054
134,porto velho,-8.7619,-63.9039,33.03,58,40,1.54,BR,1712695936
135,howard springs,-12.497,131.047,23.95,75,92,2.64,AU,1712696054
136,esmeralda,21.8525,-78.1169,28.72,45,55,5.43,CU,1712696054
137,saipan,15.1355,145.701,27.39,83,40,8.75,MP,1712696054
138,portland,45.5234,-122.6762,18.64,69,75,3.6,US,1712695499
139,lop buri,14.7981,100.654,29.13,65,79,1.33,TH,1712696054
140,rabak,13.1809,32.74,30.28,7,50,6.55,SD,1712696054
141,iskateley,67.6803,53.1512,-8.32,85,100,2.24,RU,1712696054
142,maumere,-8.6199,122.2111,26.35,82,97,0.93,ID,1712696055
143,kirkwood,38.5834,-90.4068,23.16,42,75,2.24,US,1712695979
144,lebu,-37.6167,-73.65,11.89,68,85,10.0,CL,1712696055
145,caconda,-13.7333,15.0667,16.69,92,100,1.07,AO,1712696055
146,atafu village,-8.5421,-172.5159,30.26,74,90,7.33,TK,1712696055
147,poronaysk,49.2167,143.1167,-0.38,68,79,3.11,RU,1712696055
148,daru,-9.0763,143.2092,25.7,89,100,2.83,PG,1712696055
149,tsiombe,-25.3,45.4833,23.36,97,100,0.67,MG,1712696055
150,kovdor,67.5662,30.4758,0.62,96,100,2.49,RU,1712695984
151,vilyuysk,63.7553,121.6247,-11.67,97,58,2.68,RU,1712696055
152,al ghayzah,16.2079,52.176,26.55,73,100,4.03,YE,1712696055
153,nogliki,51.8333,143.1667,-3.14,90,13,2.24,RU,1712696056
154,san fernando,15.0286,120.6898,27.85,83,95,1.84,PH,1712696056
155,klyuchi,52.2667,79.1667,5.8,93,100,3.69,RU,1712696056
156,vilyuchinsk,52.9306,158.4028,3.29,99,100,2.51,RU,1712696056
157,acajutla,13.5928,-89.8275,30.97,62,90,4.31,SV,1712696056
158,plouzane,48.3833,-4.6167,10.03,84,75,4.12,FR,1712696056
159,lospalos,-8.5186,127.0025,21.88,91,26,0.75,TL,1712696056
160,weinan,34.5036,109.5089,17.45,54,100,0.49,CN,1712696056
161,rawson,-43.3002,-65.1023,14.55,25,15,5.77,AR,1712695850
162,tchintabaraden,15.8969,5.7985,31.14,15,100,2.6,NE,1712696056
163,nosy varika,-20.5833,48.5333,23.81,86,22,4.21,MG,1712696057
164,zeya,53.75,127.2667,1.94,53,100,2.39,RU,1712696057
165,mahina,-17.5065,-149.489,29.87,79,75,2.06,PF,1712696057
166,sitka,57.0531,-135.33,7.94,61,75,2.57,US,1712696057
167,praia da vitoria,38.7333,-27.0667,18.14,88,75,10.51,PT,1712696057
168,natal,-5.795,-35.2094,28.36,89,75,3.09,BR,1712695611
169,moengo,5.6167,-54.4,29.45,59,98,2.49,SR,1712696057
170,roccella ionica,38.322,16.4009,17.25,66,93,2.81,IT,1712696057
171,yetkul',54.8221,61.588,3.53,91,96,5.36,RU,1712696057
172,alice springs,-23.7,133.8833,13.45,67,3,2.57,AU,1712696058
173,terra santa,-2.1042,-56.4869,25.3,92,100,0.57,BR,1712696058
174,utrik,11.2278,169.8474,26.82,85,99,9.39,MH,1712696058
175,gilgit,35.9221,74.3087,4.72,45,100,1.26,PK,1712696058
176,georgetown,5.4112,100.3354,28.3,91,20,1.03,MY,1712695687
177,marrakesh,31.6315,-8.0083,22.04,40,0,4.63,MA,1712695963
178,papatowai,-46.5619,169.4708,14.34,85,100,1.78,NZ,1712696058
179,mbuguni,-3.5667,36.95,21.45,89,100,1.28,TZ,1712696058
180,st. john's,47.5649,-52.7093,0.93,93,100,9.77,CA,1712695873
181,lerwick,60.1545,-1.1494,6.0,88,100,8.7,GB,1712696058
182,enewetak,11.3474,162.3373,27.16,80,100,9.87,MH,1712696058
183,odienne,9.51,-7.5692,27.94,58,100,1.44,CI,1712696059
184,cuenca,-2.8833,-78.9833,20.07,52,75,5.14,EC,1712695804
185,ginir,7.1333,40.7,16.63,81,5,1.63,ET,1712696059
186,tamiahua,21.2667,-97.45,30.27,62,94,6.84,MX,1712696059
187,turpan,42.9333,89.1667,21.37,17,13,3.1,CN,1712696059
188,aasiaat,68.7098,-52.8699,-8.7,85,100,2.57,GL,1712696059
189,aswan,24.0934,32.907,25.61,20,0,4.63,EG,1712696059
190,xining,36.6167,101.7667,4.36,83,100,1.28,CN,1712696059
191,eydhafushi,5.1033,73.0708,29.01,75,85,3.65,MV,1712696059
192,rio claro,-22.4114,-47.5614,22.42,85,11,0.61,BR,1712696059
193,shache,38.4167,77.2406,16.16,21,93,3.41,CN,1712696060
194,acaponeta,22.4964,-105.3594,32.47,20,2,4.9,MX,1712696060
195,dingzhou,38.5131,114.9956,9.06,38,100,1.48,CN,1712696060
196,colonia,50.9333,6.95,11.09,73,20,4.63,DE,1712695832
197,olyokminsk,60.3736,120.4264,-8.61,99,87,0.62,RU,1712696060
198,paita,-5.0892,-81.1144,24.75,71,22,6.44,PE,1712696060
199,charters towers,-20.1,146.2667,19.69,53,88,5.51,AU,1712696060
200,hotan,37.0997,79.9269,15.45,13,72,4.54,CN,1712696060
201,laguna,38.421,-121.4238,24.05,43,0,1.54,US,1712696052
202,bel ombre,-4.6167,55.4167,28.91,79,40,3.6,SC,1712696061
203,nemuro,43.3236,145.575,0.29,74,8,7.25,JP,1712696061
204,fatehpur,25.9333,80.8,27.35,22,89,3.41,IN,1712696061
205,hawaiian paradise park,19.5933,-154.9731,23.35,86,100,1.54,US,1712696061
206,vanimo,-2.6741,141.3028,25.43,92,99,2.95,PG,1712696061
207,rio grande,-32.035,-52.0986,28.06,81,68,5.14,BR,1712696061
208,lihue,21.9789,-159.3672,25.58,71,0,7.2,US,1712696061
209,manokwari,-0.8667,134.0833,25.76,82,83,2.03,ID,1712696061
210,sima,53.9202,102.0442,0.13,81,49,4.16,RU,1712696061
211,ribeira grande,38.5167,-28.7,17.65,94,75,10.73,PT,1712696061
212,geraldton,-28.7667,114.6,22.23,40,0,7.2,AU,1712696062
213,les cayes,18.2,-73.75,27.8,75,72,5.0,HT,1712696062
214,olinda,-8.0089,-34.8553,27.85,89,75,3.6,BR,1712696062
215,dhidhdhoo,6.8833,73.1,29.32,72,28,3.35,MV,1712696062
216,sakai-nakajima,36.2667,139.25,4.39,53,0,3.91,JP,1712696062
217,chonchi,-42.6128,-73.8092,12.56,68,80,3.03,CL,1712696062
218,afaahiti,-17.75,-149.2833,28.93,83,100,5.37,PF,1712696062
219,khandyga,62.6667,135.6,-8.82,96,100,0.27,RU,1712696062
220,saldanha,-33.0117,17.9442,16.03,93,5,7.03,ZA,1712696062
221,balqash,46.8481,74.995,6.89,76,100,6.0,KZ,1712696062
222,kabare,-2.4683,28.8242,16.76,95,69,0.97,CD,1712696063
223,santa ana,33.7456,-117.8678,29.8,23,0,4.12,US,1712695933
224,island harbour,50.724,-1.2758,10.04,71,8,2.24,GB,1712696063
225,soio,-6.1349,12.3689,27.27,86,98,2.37,AO,1712696063
226,san jeronimo de juarez,17.1333,-100.4667,30.11,54,97,4.15,MX,1712696063
227,akureyri,65.6835,-18.0878,-0.04,69,75,2.06,IS,1712696063
228,raja,8.4596,25.678,28.09,25,8,1.53,SS,1712696063
229,tangping,22.0265,111.9323,22.29,83,100,2.55,CN,1712696063
230,qaqortoq,60.7167,-46.0333,-2.38,77,0,1.51,GL,1712696063
231,ust'-barguzin,53.45,108.9833,-7.26,86,34,2.01,RU,1712696064
232,kodiak,57.79,-152.4072,-3.27,54,75,2.57,US,1712696064
233,big spring,32.2504,-101.4787,10.25,84,100,6.69,US,1712696064
234,concepcion,-36.827,-73.0498,17.89,55,0,6.17,CL,1712695909
235,vylkove,45.4021,29.586,12.41,64,4,1.94,UA,1712696064
236,ruteng,-8.6136,120.4721,18.0,95,100,0.58,ID,1712696064
237,puerto lempira,15.2667,-83.7667,31.08,66,40,1.03,HN,1712696064
238,kinablangan,7.6947,126.5503,24.12,82,98,1.82,PH,1712696064
239,gorontalo,0.5412,123.0595,21.54,95,100,1.82,ID,1712696064
240,pacov,49.4708,15.0017,8.34,86,100,9.04,CZ,1712696064
241,ebon,4.582,168.6964,28.17,82,95,8.72,MH,1712696065
242,yermakovskoye,53.2831,92.4003,11.4,74,100,5.47,RU,1712696065
243,hithadhoo,-0.6,73.0833,28.84,76,78,3.08,MV,1712696065
244,ust-tsilma,65.441,52.1498,-7.99,95,99,2.68,RU,1712696065
245,peace river,56.2501,-117.286,9.17,34,75,11.32,CA,1712696065
246,invercargill,-46.4,168.35,12.79,95,100,0.89,NZ,1712695845
247,moranbah,-22.0016,148.0466,18.76,48,5,5.03,AU,1712696065
248,brisas de zicatela,15.8369,-97.0419,29.75,55,24,3.41,MX,1712696065
249,colac,-38.3333,143.5833,12.13,90,85,2.28,AU,1712696065
250,houmt el souk,33.8758,10.8575,18.97,88,20,6.17,TN,1712696065
251,medicine hat,50.0501,-110.6683,14.84,32,75,5.66,CA,1712695204
252,dunedin,-45.8742,170.5036,15.45,98,100,2.69,NZ,1712695776
253,tromso,69.6496,18.957,3.01,87,75,0.0,NO,1712696066
254,hadithah,34.1397,42.3781,21.73,54,36,8.09,IQ,1712696066
255,itaituba,-4.2761,-55.9836,30.09,74,20,1.03,BR,1712695879
256,lukolela,-1.0605,17.1821,23.59,91,91,1.06,CD,1712696066
257,ouadda,8.0777,22.4007,28.81,33,93,0.64,CF,1712696066
258,santa ana hueytlalpan,20.1833,-98.3,29.79,16,87,0.99,MX,1712696066
259,aban,56.67,96.06,3.46,94,100,3.27,RU,1712696066
260,suntar,62.1444,117.6319,-13.57,97,62,2.28,RU,1712696066
261,soanierana ivongo,-16.9167,49.5833,23.74,91,60,1.47,MG,1712696067
262,tangalle,6.024,80.7911,25.38,82,34,4.2,LK,1712696067
263,micheweni,-4.9667,39.8333,27.2,85,89,4.99,TZ,1712696067
264,hsinchu,24.8036,120.9686,22.7,85,83,0.89,TW,1712696067
265,bekovo,52.4663,43.712,13.33,78,77,3.0,RU,1712696067
266,kyzyl-mazhalyk,51.1333,90.6,8.84,62,100,1.34,RU,1712696067
267,santana,-0.0583,-51.1817,28.1,83,75,2.06,BR,1712696067
268,okhotsk,59.3833,143.3,-6.71,77,5,8.0,RU,1712696067
269,ilulissat,69.2167,-51.1,-6.99,73,40,2.06,GL,1712696067
270,iranshahr,27.2025,60.6848,27.19,26,0,0.0,IR,1712696068
271,nampula,-15.1165,39.2666,22.72,90,79,1.3,MZ,1712696068
272,enshi,30.3,109.4833,15.33,94,100,0.17,CN,1712696068
273,bodo,67.28,14.405,7.02,61,0,2.57,NO,1712696068
274,bamenda,5.9527,10.1582,19.56,91,75,1.87,CM,1712696068
275,vienenburg,51.95,10.5667,11.61,87,100,5.58,DE,1712696068
276,yozgat,39.5833,35.3333,10.79,74,100,1.55,TR,1712696068
277,touros,-5.1989,-35.4608,27.05,85,100,3.47,BR,1712696028
278,severo-yeniseyskiy,60.3725,93.0408,0.88,91,100,3.13,RU,1712696068
279,saint-denis,48.9167,2.3333,9.27,74,0,5.14,FR,1712696068
280,bom jesus,-9.0744,-44.3586,30.11,51,74,0.33,BR,1712696068
281,hammerfest,70.6634,23.6821,0.25,86,75,7.72,NO,1712696069
282,quellon,-43.1167,-73.6167,10.24,71,11,4.85,CL,1712695940
283,juegang,32.3174,121.1855,9.57,74,99,3.64,CN,1712696069
284,parbhani,19.2667,76.7833,30.33,40,97,3.98,IN,1712696069
285,jerez de garcia salinas,22.65,-103.0,26.09,12,0,14.34,MX,1712696069
286,jayapura,-2.5333,140.7,23.66,94,100,2.36,ID,1712696069
287,laojunmiao,39.8333,97.7333,7.07,19,0,2.86,CN,1712696069
288,udachny,66.4167,112.4,-1.97,78,100,8.18,RU,1712696069
289,badr hunayn,23.7829,38.7905,25.35,30,79,1.96,SA,1712696070
290,markovo,57.3206,107.0881,-10.08,97,56,1.71,RU,1712696070
291,metlili chaamba,32.2667,3.6333,25.52,24,75,2.57,DZ,1712696070
292,vila franca do campo,37.7167,-25.4333,18.27,99,100,6.21,PT,1712696070
293,lakhipur,26.0299,90.3041,23.9,40,88,1.51,IN,1712696070
294,karari,25.45,81.4333,27.35,26,100,2.06,IN,1712696070
295,san angelo,31.4638,-100.437,25.12,47,20,7.72,US,1712695798
296,westport,41.1415,-73.3579,25.36,37,0,3.6,US,1712696071
297,sosnovo-ozerskoye,52.5249,111.5418,-3.98,62,13,1.24,RU,1712696071
298,thinadhoo,0.5333,72.9333,29.34,73,90,4.27,MV,1712696071
299,arkhangel'sk,64.5401,40.5433,1.18,100,100,1.0,RU,1712696071
300,canutama,-6.5339,-64.3831,25.58,95,100,0.34,BR,1712696056
301,new norfolk,-42.7826,147.0587,8.84,84,91,1.06,AU,1712696071
302,fale old settlement,-9.3852,-171.2468,30.13,76,95,6.74,TK,1712696071
303,lodwar,3.1191,35.5973,27.89,62,65,2.99,KE,1712696071
304,rio branco,-9.9747,-67.81,29.34,74,75,5.66,BR,1712695821
305,kill devil hills,36.0307,-75.676,23.0,62,75,4.12,US,1712696072
306,cidade velha,14.9167,-23.6167,23.26,73,20,8.75,CV,1712696072
307,madalena,41.2162,-8.3345,10.98,81,26,0.6,PT,1712696072
308,chegdomyn,51.1167,133.0167,-10.89,95,41,0.83,RU,1712696072
309,hakui,36.8833,136.7833,6.23,82,5,2.86,JP,1712696072
310,barra,-11.0894,-43.1417,27.86,60,17,1.72,BR,1712696072
311,rosarito,32.3333,-117.0333,28.29,38,0,5.1,MX,1712695389
312,apricena,41.7839,15.4437,19.05,49,100,4.02,IT,1712696072
313,sironj,24.1,77.7,27.89,34,100,3.47,IN,1712696072
314,sao miguel,-5.4667,-35.3667,27.43,81,98,4.2,BR,1712696073
315,hadibu,12.65,54.0333,26.82,76,22,3.68,YE,1712696073
316,entebbe,0.0644,32.4469,22.18,83,20,0.0,UG,1712696073
317,selma,36.5708,-119.6121,24.02,44,0,1.54,US,1712696073
318,salmon arm,50.6998,-119.3024,11.35,70,89,3.09,CA,1712696073
319,carnot,4.9409,15.8665,26.7,50,57,1.18,CF,1712696073
320,lhasa,29.65,91.1,2.57,44,97,2.38,CN,1712696073
321,labytnangi,66.6572,66.4183,-26.46,98,83,1.26,RU,1712696073
322,polyarnyy,69.1989,33.4478,-3.41,89,100,1.6,RU,1712696074
323,chibougamau,49.9168,-74.3659,10.79,28,0,5.66,CA,1712696074
324,las veredas,23.1388,-109.7075,24.52,50,0,3.13,MX,1712696074
325,vrontados,38.4089,26.1328,19.92,49,0,4.63,GR,1712696074
326,sandnessjoen,66.0217,12.6316,8.06,57,0,2.57,NO,1712696074
327,chandur,19.7333,79.1833,27.0,51,32,2.21,IN,1712696074
328,arraial do cabo,-22.9661,-42.0278,27.98,83,40,2.57,BR,1712696074
329,holualoa,19.6228,-155.9522,24.88,76,0,5.14,US,1712696074
330,catio,11.2833,-15.25,25.12,69,59,3.88,GW,1712696074
331,thompson,55.7435,-97.8558,14.09,23,75,1.54,CA,1712696075
332,de aar,-30.6497,24.0123,11.71,74,57,4.93,ZA,1712696075
333,nakonde,-9.3421,32.745,16.25,97,97,0.89,ZM,1712696075
334,cole harbour,44.6724,-63.4751,4.98,64,75,7.72,CA,1712696075
335,nuuk,64.1835,-51.7216,-2.66,68,0,3.6,GL,1712695816
336,loiza,18.4313,-65.8802,27.14,72,75,6.17,PR,1712696075
337,alofi,-19.0595,-169.9187,25.94,89,40,3.6,NU,1712696075
338,afua,-0.1567,-50.3867,26.68,86,100,2.02,BR,1712696075
339,ha giang,22.8333,104.9833,21.93,95,100,0.72,VN,1712696075
340,kayangel,8.0823,134.7173,27.73,76,100,5.11,PW,1712696075
341,szczebrzeszyn,50.695,22.9795,15.28,74,70,3.18,PL,1712696075
342,visakhapatnam,17.69,83.2093,23.94,88,0,1.03,IN,1712696076
343,whakatane,-37.9585,176.9854,20.84,88,85,2.24,NZ,1712696076
344,solwezi,-12.1688,26.3894,17.6,94,94,1.0,ZM,1712696076
345,suoyarvi,62.0833,32.35,-2.24,98,38,1.34,RU,1712696076
346,bhimunipatnam,17.8833,83.4333,23.73,72,0,2.12,IN,1712696076
347,pisco,-13.7,-76.2167,26.12,65,0,8.75,PE,1712695816
348,jequie,-13.8575,-40.0836,23.52,98,12,1.63,BR,1712696076
349,kiunga,-6.1219,141.2906,23.23,99,100,0.42,PG,1712696076
350,vorkuta,67.5,64.0,-29.78,100,55,1.14,RU,1712696076
351,minot,48.2325,-101.2963,17.06,27,100,5.66,US,1712695834
352,virudunagar,9.6,77.9667,27.22,73,97,3.53,IN,1712696076
353,sarai,53.7458,41.0213,14.21,75,51,3.14,RU,1712696077
354,anadyr,64.75,177.4833,-4.72,86,100,6.0,RU,1712696077
355,inhambane,-23.865,35.3833,24.98,87,76,5.57,MZ,1712696077
356,freetown,8.484,-13.2299,27.84,78,40,6.17,SL,1712696077
357,ola,59.5833,151.2833,-7.15,78,5,3.67,RU,1712696077
358,puerto deseado,-47.7503,-65.8938,9.22,56,82,11.48,AR,1712695890
359,ugoofaaru,5.6667,73.0,29.42,74,41,4.73,MV,1712696077
360,mandalgovi,45.7625,106.2708,3.76,71,3,1.23,MN,1712696077
361,miyako,39.6367,141.9525,2.14,73,2,2.21,JP,1712696077
362,kindu,-2.95,25.95,22.93,90,100,1.16,CD,1712695893
363,ust'-ilimsk,58.0006,102.6619,-4.76,92,100,2.24,RU,1712696020
364,prince rupert,54.3161,-130.3201,8.05,75,40,7.2,CA,1712696078
365,yazd,31.8972,54.3675,24.06,19,20,4.12,IR,1712695831
366,bethanie,-26.4833,17.15,16.95,52,0,4.77,NA,1712696078
367,sao vicente,-23.9631,-46.3919,28.1,63,75,2.24,BR,1712696068
368,dzialdowo,53.2396,20.17,16.38,67,69,4.04,PL,1712696078
369,arkalyk,50.2486,66.9114,5.39,97,95,4.07,KZ,1712696078
370,kulunda,52.566,78.9385,4.61,93,100,3.37,RU,1712696078
371,las heras,-46.5419,-68.9359,12.63,27,1,6.63,AR,1712696078
372,keflavik,64.0049,-22.5624,2.24,64,0,1.03,IS,1712696078
373,kitimat,54.0524,-128.6534,8.84,71,87,2.15,CA,1712696079
374,aykhal,66.0,111.5,-5.92,92,100,8.39,RU,1712696079
375,murzuq,25.9155,13.9184,22.65,14,0,4.35,LY,1712696079
376,taltal,-25.4,-70.4833,20.31,72,21,3.32,CL,1712696079
377,tokar,18.4254,37.729,26.3,57,13,2.65,SD,1712696079
378,al jumum,21.6169,39.6981,27.51,26,10,1.89,SA,1712696079
379,compostela,7.6731,126.0889,22.71,92,91,1.13,PH,1712696079
380,hutchinson island south,27.2995,-80.2205,26.69,62,75,8.23,US,1712696079
381,kodinsk,58.6881,99.1844,0.24,97,100,2.1,RU,1712696079
382,fort st. john,56.2499,-120.8529,5.94,56,75,9.26,CA,1712695939
383,sao felix do xingu,-6.6447,-51.995,26.53,89,88,0.76,BR,1712696080
384,fortuna,40.5982,-124.1573,14.99,79,100,5.14,US,1712695622
385,nadvoitsy,63.8667,34.3167,1.5,96,100,1.62,RU,1712696080
386,obo,5.3998,26.4869,24.78,47,7,1.33,CF,1712696080
387,fort bragg,35.139,-79.006,21.91,63,75,6.69,US,1712696013
388,bikenibeu village,1.3673,173.1241,26.98,94,100,4.12,KI,1712696080
389,vilyeyka,54.4896,26.9062,15.34,81,8,2.55,BY,1712696080
390,valparaiso,-33.0393,-71.6273,23.97,76,40,4.12,CL,1712695942
391,la tuque,47.4334,-72.7824,15.14,15,66,1.54,CA,1712696080
392,east foothills,37.3811,-121.8175,26.6,36,0,3.58,US,1712696080
393,kalinovskaya,43.5758,45.5192,13.58,91,36,1.91,RU,1712696080
394,buka,40.8108,69.1986,11.56,70,8,2.5,UZ,1712696081
395,sutysky,49.0425,28.4173,14.04,55,96,3.6,UA,1712696081
396,sinabang,2.4803,96.3801,24.52,94,100,0.4,ID,1712696081
397,puerto baquerizo moreno,-0.9,-89.6,29.55,84,40,6.69,EC,1712696081
398,qusar,41.4273,48.4289,9.92,77,57,1.06,AZ,1712696081
399,kargopol',61.5071,38.9456,2.27,95,100,1.07,RU,1712696081
400,jucas,-6.5253,-39.5275,28.06,61,66,1.37,BR,1712696081
401,wenling,28.3669,121.36,12.08,81,63,2.89,CN,1712696081
402,ndende,-2.4008,11.3581,24.54,96,99,0.49,GA,1712696081
403,uddevalla,58.3478,11.9424,8.51,95,100,3.55,SE,1712696081
404,caraballeda,10.6112,-66.8522,31.04,70,20,1.54,VE,1712696082
405,margate,51.3813,1.3862,9.93,63,8,2.68,GB,1712696082
406,bonthe,7.5264,-12.505,27.01,83,58,3.55,SL,1712696082
407,petropavlovsk-kamchatsky,53.0452,158.6483,2.47,82,100,7.0,RU,1712696082
408,karagandy,49.8019,73.1021,4.97,91,100,6.28,KZ,1712695828
409,nova vicosa,-17.8919,-39.3719,26.07,81,31,2.81,BR,1712695938
410,kochubey,44.3861,46.5825,11.06,87,70,6.12,RU,1712696082
411,palikir - national government center,6.9248,158.1611,27.41,83,100,4.63,FM,1712696083
412,tura,25.5198,90.2201,23.83,36,66,1.84,IN,1712696083
413,ambon,-3.6954,128.1814,28.26,95,20,2.57,ID,1712696083
414,minas de marcona,-15.2119,-75.1103,20.28,68,61,7.23,PE,1712696083
415,mil'kovo,55.6078,37.7956,15.19,83,100,2.54,RU,1712696083
416,mount pearl,47.5166,-52.7813,0.47,93,100,8.23,CA,1712696083
417,nikolayevsk-on-amure,53.1406,140.73,-4.93,90,75,1.85,RU,1712696083
418,egilsstadir,65.2653,-14.3948,-0.05,86,75,5.66,IS,1712696083
419,kete krachi,7.7939,-0.0498,29.95,66,100,4.63,GH,1712696083
420,nagqu,31.5,92.0,-7.33,84,100,6.78,CN,1712696083
421,al khums,32.6486,14.2619,18.17,54,100,5.32,LY,1712696083
422,boende,-0.2167,20.8667,25.3,72,15,0.9,CD,1712696084
423,sao caetano de odivelas,-0.75,-48.02,26.5,86,93,2.41,BR,1712696084
424,hovd,48.0056,91.6419,7.58,47,100,2.25,MN,1712696084
425,selfoss,63.9331,-20.9971,2.25,91,100,3.66,IS,1712696084
426,sabang,5.8933,95.3214,28.56,77,93,1.21,ID,1712696084
427,hasaki,35.7333,140.8333,6.27,51,48,9.87,JP,1712696084
428,cockburn town,21.4612,-71.1419,24.33,61,40,8.32,TC,1712696084
429,yuanlin,30.4151,112.8859,14.71,91,33,0.46,CN,1712696066
430,ostersund,63.1792,14.6357,8.25,61,100,5.14,SE,1712695950
431,santiago acutzilapan,19.7833,-99.6833,22.78,15,100,7.43,MX,1712696084
432,solnechnyy,50.7214,136.6319,-0.54,79,4,2.1,RU,1712696084
433,pitimbu,-7.4706,-34.8086,28.33,85,100,6.32,BR,1712696085
434,tremonton,41.7119,-112.1655,12.01,61,98,4.92,US,1712695882
435,shengli,37.4564,118.4856,10.61,46,100,0.8,CN,1712696085
436,barkhan,29.8977,69.5256,20.86,19,43,1.6,PK,1712696085
437,san sebastian de la gomera,28.0916,-17.1133,21.2,64,0,3.6,ES,1712695875
438,zhanaozen,43.3,52.8,15.64,46,76,4.49,KZ,1712696085
439,carnarvon,-24.8667,113.6333,25.3,40,0,6.38,AU,1712696085
440,crucecita,-28.95,-58.9833,25.92,71,54,1.36,AR,1712696085
441,acarau,-2.8856,-40.12,26.92,86,99,3.62,BR,1712696085
442,balikpapan,-1.2675,116.8289,24.25,95,100,2.3,ID,1712696085
443,nizhniy kuranakh,58.8353,125.4869,-8.06,98,100,0.96,RU,1712696085
444,mangochi,-14.4782,35.2645,23.15,85,90,0.37,MW,1712696086
445,idri,27.5,13.2667,22.19,17,0,4.0,LY,1712696086
446,serdar,38.9764,56.2757,19.09,42,5,7.9,TM,1712696086
447,tra vinh,9.9347,106.3453,27.19,70,49,4.02,VN,1712696086
448,altai,46.3722,96.2583,3.25,30,64,5.37,MN,1712696086
449,burang,30.25,81.1667,-13.32,88,20,0.57,CN,1712696086
450,tobruk,32.0836,23.9764,16.92,67,0,5.95,LY,1712696086
451,motueka,-41.1333,173.0167,18.39,84,83,0.36,NZ,1712696087
452,arcadia,34.1397,-118.0353,29.06,18,0,1.79,US,1712696062
453,tateyama,34.9833,139.8667,8.94,61,100,5.99,JP,1712696087
454,bac lieu,9.285,105.7244,28.19,67,64,6.9,VN,1712696087
455,viedma,-40.8135,-62.9967,12.87,38,4,5.34,AR,1712696087
456,saint johns,29.8961,-81.4165,27.29,65,0,6.69,US,1712696087
457,dali,25.7,100.1833,12.97,66,4,2.35,CN,1712696087
458,isiro,2.7739,27.616,20.49,92,72,1.08,CD,1712696087
459,smara,26.7384,-11.6719,19.85,63,0,7.18,EH,1712696087
460,selkirk,50.1436,-96.8845,13.38,49,50,2.24,CA,1712696087
461,buala,-8.145,159.5921,28.67,77,99,2.49,SB,1712696087
462,gaiman,-43.2897,-65.4929,14.53,20,34,6.69,AR,1712696088
463,malinyi,-8.9333,36.1333,22.54,98,99,0.93,TZ,1712696088
464,haiku-pauwela,20.9219,-156.3051,27.34,67,20,8.23,US,1712696088
465,al jawf,29.5,38.75,19.34,28,49,7.02,SA,1712696088
466,san andres,12.5847,-81.7006,31.01,66,20,7.2,CO,1712696088
467,kataba,13.9833,44.3833,18.15,71,50,0.45,YE,1712696088
468,ulladulla,-35.35,150.4667,11.82,70,31,5.88,AU,1712696088
469,shimoda,34.6667,138.95,8.39,64,91,6.83,JP,1712696088
470,cambria,35.5641,-121.0808,25.23,59,0,3.88,US,1712695935
471,taluksangay,6.9542,122.1839,26.64,79,100,1.52,PH,1712696088
472,n'zeto,-7.2312,12.8666,26.74,88,31,2.66,AO,1712696089
473,el nido,11.1858,119.3956,27.46,80,83,3.56,PH,1712696089
474,port alfred,-33.5906,26.891,16.21,99,99,4.47,ZA,1712696089
475,limassol,34.675,33.0333,15.04,77,20,1.54,CY,1712696089
476,atherton,53.5237,-2.4935,9.12,74,0,0.89,GB,1712696089
477,tara,56.8944,74.371,-2.17,96,99,1.84,RU,1712696089
478,rio preto da eva,-2.6994,-59.6997,23.97,98,100,1.39,BR,1712696089
479,i-n-salah,27.1935,2.4607,32.99,8,1,3.39,DZ,1712696089
480,nantucket,41.2835,-70.0995,17.08,56,0,3.6,US,1712696089
481,newman,37.3138,-121.0208,22.91,44,0,1.79,US,1712696089
482,kibakwe,-6.7167,36.3667,18.53,95,100,1.26,TZ,1712696090
483,progreso,21.2833,-89.6667,36.09,45,95,5.01,MX,1712696090
484,la mira,18.035,-102.3266,29.28,48,67,6.02,MX,1712696090
485,mantua,45.1667,10.7833,17.21,87,100,0.45,IT,1712696090
486,mananara,-16.1667,49.7667,23.67,93,50,1.72,MG,1712696090
487,trebon,49.0036,14.7707,11.76,86,100,7.26,CZ,1712696090
488,luanda,-8.8368,13.2343,27.0,87,40,2.57,AO,1712695449
489,bridlington,54.0831,-0.1919,9.45,78,76,3.58,GB,1712696090
490,childress,34.4264,-100.204,11.14,87,100,7.2,US,1712695795
491,al hazm,16.1641,44.7769,27.77,46,55,4.73,YE,1712696090
492,bischofswerda,51.1277,14.1797,10.53,91,100,8.03,DE,1712696090
493,levuka,50.1834,-105.4011,15.85,33,40,3.09,CA,1712696091
494,fortaleza,-3.7227,-38.5247,29.56,79,40,3.6,BR,1712695446
495,nueva gerona,21.8833,-82.8,28.03,63,21,7.74,CU,1712696091
496,chita,52.0333,113.55,-11.06,73,3,1.0,RU,1712696091
497,ravenna,44.4167,11.9833,19.39,91,98,3.67,IT,1712696091
498,indramayu,-6.3264,108.32,27.02,82,99,2.23,ID,1712696091
499,mount gambier,-37.8333,140.7667,12.98,87,100,1.91,AU,1712696091
500,andergrove,-21.0833,149.1833,18.69,65,80,6.62,AU,1712696091
501,trencin,48.8333,18.25,19.36,74,65,1.66,SK,1712696091
502,malango,-2.9627,119.9001,20.11,100,100,0.4,ID,1712696091
503,katsuura,35.1333,140.3,9.57,55,93,9.1,JP,1712696091
504,vangaindrano,-23.35,47.6,23.93,93,33,4.25,MG,1712696092
505,leirvik,59.7798,5.5005,8.13,88,100,2.2,NO,1712696092
506,egersund,58.4513,5.9997,8.94,91,100,8.6,NO,1712696092
507,culpeper,38.5004,-77.9664,26.67,34,75,3.09,US,1712696092
508,ibotirama,-12.1853,-43.2206,28.43,56,79,1.23,BR,1712696092
509,saudarkrokur,65.7461,-19.6394,-0.98,86,100,0.8,IS,1712696092
510,san antonio de pale,-1.4014,5.6325,27.91,77,15,3.5,GQ,1712696092
511,birjand,32.8663,59.2211,14.26,38,0,6.17,IR,1712695986
512,feijo,-8.1642,-70.3536,29.52,78,63,1.22,BR,1712695805
513,at taj,24.2049,23.2857,19.43,28,97,4.77,LY,1712696092
514,chinchilla,-26.75,150.6333,11.68,76,0,0.89,AU,1712696092
515,gizo,-8.103,156.8419,28.75,76,98,2.64,SB,1712696093
516,farsan,32.2569,50.561,11.02,43,100,1.99,IR,1712696093
517,cam ranh,11.9214,109.1591,27.98,74,40,5.66,VN,1712696093
518,slave lake,55.2834,-114.769,6.99,42,0,5.14,CA,1712695936
519,kailua-kona,19.6406,-155.9956,26.39,75,0,5.14,US,1712695908
520,port blair,11.6667,92.75,28.02,89,20,1.03,IN,1712696093
521,la sarre,48.8002,-79.1996,17.03,52,100,5.41,CA,1712696093
522,parauapebas,-6.0675,-49.9022,29.99,78,20,0.0,BR,1712696094
523,churachandpur,24.3333,93.6667,16.61,45,100,0.97,IN,1712696094
524,berezovyy,51.6667,135.7,-3.99,79,5,2.47,RU,1712696094
525,lambarene,-0.7001,10.2406,25.55,91,100,0.53,GA,1712696094
526,doctor juan leon mallorquin,-25.4,-55.2667,28.85,61,40,1.83,PY,1712696094
527,grand falls-windsor,48.9332,-55.6649,0.28,74,62,3.58,CA,1712696094
528,guerrero negro,27.9769,-114.0611,20.45,48,0,7.11,MX,1712696080
529,samraong,12.4526,105.5873,25.41,82,49,1.02,KH,1712696094
530,kerman,30.2832,57.0788,13.92,47,20,2.06,IR,1712696038
531,giridih,24.1833,86.3,26.48,31,89,1.37,IN,1712696094
532,santa catalina,9.3337,122.8637,25.85,81,40,3.45,PH,1712696094
533,yelizovo,53.1873,158.3805,3.22,80,100,7.0,RU,1712696094
534,palmer,42.1584,-72.3287,23.65,16,40,2.06,US,1712696095
535,hobyo,5.3505,48.5268,28.42,70,65,5.52,SO,1712696095
536,yarmouth,41.7057,-70.2286,14.52,59,0,6.26,US,1712696095
537,rongelap,11.1635,166.8941,27.05,83,100,9.39,MH,1712696095
538,kalkaman,51.9525,76.0211,6.05,89,100,5.63,KZ,1712696095
539,rupert,42.6191,-113.6772,13.99,35,0,6.17,US,1712695952
540,greenville,35.6127,-77.3663,22.09,65,0,3.09,US,1712696073
541,horta,38.5333,-28.6333,17.23,93,75,10.28,PT,1712696095
542,choma,-16.8065,26.9531,19.25,81,53,0.67,ZM,1712696095
543,veraval,20.9,70.3667,25.49,70,11,5.16,IN,1712696095
544,port isabel,26.0734,-97.2086,29.02,79,75,8.75,US,1712696095
545,revda,56.801,59.9303,-0.53,94,92,2.74,RU,1712696096
546,sorong,-0.8833,131.25,26.33,84,100,2.19,ID,1712696096
547,the bottom,17.6259,-63.2492,26.31,80,49,9.47,BQ,1712696096
548,qamdo,31.1667,97.2333,-1.6,55,84,2.91,CN,1712696096
549,el rosario,24.2556,-107.1828,28.68,25,0,6.01,MX,1712696096
550,labuan,5.2767,115.2417,28.2,94,20,2.06,MY,1712696096
551,kristiansund,63.1115,7.732,9.03,81,75,1.54,NO,1712696096
552,gafanha da nazare,40.6362,-8.7134,12.53,72,17,7.59,PT,1712696096
553,mogadishu,2.0371,45.3438,28.97,74,39,4.73,SO,1712696096
554,coesfeld,51.9333,7.15,10.62,80,79,7.63,DE,1712696096
555,alamos,27.0167,-108.9333,25.88,11,0,3.32,MX,1712696097
556,goure,13.9835,10.2704,29.01,16,98,2.25,NE,1712696097
557,molchanovo,57.5817,83.7692,-0.19,96,100,2.56,RU,1712696097
558,crane,31.3974,-102.3501,15.86,64,57,8.85,US,1712696097
559,flin flon,54.7682,-101.865,14.91,36,75,2.57,CA,1712696097
560,novyy urengoy,66.0833,76.6333,-25.22,98,7,4.0,RU,1712696097
561,naze,28.3667,129.4833,18.51,66,99,6.87,JP,1712695904
562,arteche,12.2645,125.4048,25.39,88,96,3.27,PH,1712696097
563,upington,-28.4478,21.2561,16.21,63,0,2.57,ZA,1712696097
564,howrah,22.5892,88.3103,27.0,74,40,2.06,IN,1712696097
565,tanque verde,32.2517,-110.7373,23.14,24,0,5.66,US,1712696097
566,uthal,25.8072,66.6219,25.43,66,81,2.8,PK,1712696098
567,chernyshevskiy,63.0128,112.4714,-8.18,92,78,3.84,RU,1712696098
568,nandurbar,21.3667,74.25,27.0,50,72,7.13,IN,1712696098
569,la'ie,21.6477,-157.9253,27.98,71,14,8.7,US,1712696024
570,puerto aysen,-45.4,-72.7,8.21,84,93,1.23,CL,1712696098
571,smithers,54.7804,-127.1743,8.18,36,75,4.63,CA,1712696098
572,nouadhibou,20.931,-17.0347,22.99,60,0,9.77,MR,1712696098
573,gaspe,48.8334,-64.4819,3.12,38,20,5.14,CA,1712695956
574,lydenburg,-25.0978,30.4597,13.82,90,62,1.94,ZA,1712696098
575,santa elena,-2.2333,-80.85,29.75,70,0,4.63,EC,1712696099
576,ta`u,-14.2336,-169.5144,29.46,79,97,5.91,AS,1712696099
577,sao jose da coroa grande,-8.8978,-35.1478,26.61,85,89,4.3,BR,1712695827
578,plavinas,56.6178,25.7255,15.69,90,47,1.41,LV,1712696099
579,siuna,13.7332,-84.7773,30.97,51,100,3.63,NI,1712696099
580,timbuktu,16.7735,-3.0074,33.61,21,33,2.34,ML,1712696099
581,hell-ville,-13.4,48.2667,28.59,77,69,1.95,MG,1712696059
582,plastun,44.7561,136.2939,-0.55,47,0,2.61,RU,1712696099
583,bayanhongor,46.7167,100.1167,-1.49,58,35,1.57,MN,1712696099
584,semirara,12.0697,121.3986,27.45,78,94,9.29,PH,1712696099
585,kisangani,0.5167,25.2,21.85,97,94,1.13,CD,1712696100
586,santiago de cao,-7.9589,-79.2392,23.07,83,56,5.66,PE,1712696100
587,shitanjing,39.2342,106.3439,8.25,39,80,3.02,CN,1712696100
588,puerto madero,14.7208,-92.4215,30.63,62,34,5.02,MX,1712696100
589,impfondo,1.6381,18.0667,24.01,85,19,0.8,CG,1712696100
590,necochea,-38.5473,-58.7368,13.13,62,100,5.53,AR,1712695885
591,lae,-6.7221,146.9847,24.4,84,100,2.33,PG,1712696100
592,zeerust,-25.5369,26.0751,14.16,57,0,3.85,ZA,1712696100
593,muroto-misakicho,33.2833,134.15,10.97,63,5,6.13,JP,1712696100
594,barabai,-2.5833,115.3833,23.46,97,100,0.34,ID,1712696100
595,tshela,-4.9833,12.9333,24.04,98,100,0.21,CD,1712696101
596,mtwara,-10.2667,40.1833,24.63,100,75,2.06,TZ,1712696101
